[
    {
        "Name": "Шашлычок",
        "Latitude": "51.134314",
        "Longitude": "71.436137"
    },
    {
        "Name": "Okadzaki.kz",
        "Latitude": "51.088319",
        "Longitude": "71.425144"
    },
    {
        "Name": "Quyrdaq House",
        "Latitude": "51.109646",
        "Longitude": "71.426629"
    },
    {
        "Name": "Bloom Room Cafe",
        "Latitude": "51.10557",
        "Longitude": "71.397607"
    },
    {
        "Name": "Үш тандыр",
        "Latitude": "51.148804",
        "Longitude": "71.384805"
    },
    {
        "Name": "Creatti ",
        "Latitude": "51.085546",
        "Longitude": "71.422634"
    },
    {
        "Name": "Et-Et",
        "Latitude": "51.166721",
        "Longitude": "71.408174"
    },
    {
        "Name": "ONESHOTT coffee",
        "Latitude": "51.144748",
        "Longitude": "71.460283"
    },
    {
        "Name": "KaRima",
        "Latitude": "51.089478",
        "Longitude": "71.425559"
    },
    {
        "Name": "ШАВЕРМА",
        "Latitude": "51.174128",
        "Longitude": "71.438465"
    },
    {
        "Name": "LAVASH Food",
        "Latitude": "51.089692",
        "Longitude": "71.423549"
    },
    {
        "Name": "ШашлыкоFF",
        "Latitude": "51.115222",
        "Longitude": "71.415091"
    },
    {
        "Name": "Baoli",
        "Latitude": "51.106693",
        "Longitude": "71.424679"
    },
    {
        "Name": "Golden Basket",
        "Latitude": "51.132568",
        "Longitude": "71.368057"
    },
    {
        "Name": "Delish",
        "Latitude": "51.139185",
        "Longitude": "71.396268"
    },
    {
        "Name": "RANCH",
        "Latitude": "51.128",
        "Longitude": "71.437072"
    },
    {
        "Name": "Мята",
        "Latitude": "51.115561",
        "Longitude": "71.413122"
    },
    {
        "Name": "Polly&Molly",
        "Latitude": "51.099699",
        "Longitude": "71.427689"
    },
    {
        "Name": "SF",
        "Latitude": "51.15992",
        "Longitude": "71.444708"
    },
    {
        "Name": "I`m ",
        "Latitude": "51.137133",
        "Longitude": "71.416777"
    },
    {
        "Name": "Brunello",
        "Latitude": "51.097592",
        "Longitude": "71.426836"
    },
    {
        "Name": "Dami ",
        "Latitude": "51.11864",
        "Longitude": "71.474707"
    },
    {
        "Name": "Zina",
        "Latitude": "51.130395",
        "Longitude": "71.464773"
    },
    {
        "Name": "Vo Dvore",
        "Latitude": "51.116569",
        "Longitude": "71.433657"
    },
    {
        "Name": "InstaCafe ",
        "Latitude": "51.13174",
        "Longitude": "71.4787"
    },
    {
        "Name": "Terrasa Comfort",
        "Latitude": "51.146471",
        "Longitude": "71.424943"
    },
    {
        "Name": "MeATADOR",
        "Latitude": "51.100747",
        "Longitude": "71.395888"
    },
    {
        "Name": "Grand Mangal",
        "Latitude": "51.130069",
        "Longitude": "71.428753"
    },
    {
        "Name": "Додо Пицца",
        "Latitude": "51.098835",
        "Longitude": "71.427136"
    },
    {
        "Name": "KUTAISI",
        "Latitude": "51.137954",
        "Longitude": "71.469733"
    },
    {
        "Name": "Daididau",
        "Latitude": "51.128657",
        "Longitude": "71.432791"
    },
    {
        "Name": "Казбек",
        "Latitude": "51.135111",
        "Longitude": "71.421268"
    },
    {
        "Name": "Gaststätte",
        "Latitude": "51.160661",
        "Longitude": "71.415301"
    },
    {
        "Name": "Тануки",
        "Latitude": "51.090346",
        "Longitude": "71.424207"
    },
    {
        "Name": "Deraliye",
        "Latitude": "51.111725",
        "Longitude": "71.408159"
    },
    {
        "Name": "Ribambelle",
        "Latitude": "51.125259",
        "Longitude": "71.431884"
    }
]